City_ID,City,Lat,Lng,Max Temp,Humidity,Cloudiness,Wind Speed,Country,Date
0,Hithadhoo,-0.6,73.0833,80.78,66,0,3.06,MV,2022-09-16 00:45:21
1,Mataura,-46.1927,168.8643,46.47,52,92,4.9,NZ,2022-09-16 00:45:21
2,Bredasdorp,-34.5322,20.0403,53.42,92,18,3.65,ZA,2022-09-16 00:45:22
3,Ushuaia,-54.8,-68.3,35.26,87,40,26.46,AR,2022-09-16 00:45:23
4,Solnechnyy,50.7214,136.6319,57.4,51,99,2.53,RU,2022-09-16 00:45:23
5,Miri,4.4148,114.0089,78.94,89,40,6.91,MY,2022-09-16 00:40:34
6,Arraial Do Cabo,-22.9661,-42.0278,66.33,91,100,10.27,BR,2022-09-16 00:45:24
7,Chapais,49.7834,-74.8492,44.38,68,100,8.75,CA,2022-09-16 00:45:24
8,Buraydah,26.326,43.975,86.45,20,0,6.69,SA,2022-09-16 00:45:25
9,Evensk,61.95,159.2333,48.78,43,74,8.88,RU,2022-09-16 00:45:25
10,Atuona,-9.8,-139.0333,76.91,68,1,17.05,PF,2022-09-16 00:45:25
11,Mazatlan,23.2167,-106.4167,88.02,84,20,10.36,MX,2022-09-16 00:40:39
12,Almeirim,-1.5233,-52.5817,81.48,60,82,6.91,BR,2022-09-16 00:45:26
13,Narsaq,60.9167,-46.05,52.02,80,100,4.88,GL,2022-09-16 00:45:26
14,Port Alfred,-33.5906,26.891,60.19,97,96,5.44,ZA,2022-09-16 00:45:27
15,Olinala,17.8333,-98.85,66.49,90,100,2.13,MX,2022-09-16 00:45:27
16,Nancha,47.1333,129.2667,64.94,67,100,2.73,CN,2022-09-16 00:45:28
17,Garden City,42.3256,-83.331,68.25,78,20,6.91,US,2022-09-16 00:45:28
18,Longyearbyen,78.2186,15.6401,30.04,86,75,2.3,SJ,2022-09-16 00:41:35
19,Adrar,20.5022,-10.0711,89.62,21,5,12.39,MR,2022-09-16 00:45:29
20,Lagoa,39.05,-27.9833,73.0,91,80,18.32,PT,2022-09-16 00:45:30
21,Avarua,-21.2078,-159.775,78.85,65,27,19.57,CK,2022-09-16 00:45:30
22,Punta Arenas,-53.15,-70.9167,37.51,65,0,14.97,CL,2022-09-16 00:43:03
23,Barrow,71.2906,-156.7887,35.62,93,100,29.93,US,2022-09-16 00:45:31
24,Cabatuan,10.8794,122.486,76.5,91,100,7.83,PH,2022-09-16 00:45:31
25,Puerto Escondido,15.85,-97.0667,76.21,89,100,6.2,MX,2022-09-16 00:45:32
26,Riyadh,24.6877,46.7219,84.34,27,23,8.19,SA,2022-09-16 00:41:49
27,Busselton,-33.65,115.3333,58.12,72,62,8.46,AU,2022-09-16 00:45:32
28,Bethel,41.3712,-73.414,63.48,74,0,3.44,US,2022-09-16 00:45:33
29,Killybegs,54.6333,-8.45,53.08,71,8,12.08,IE,2022-09-16 00:45:33
30,Desaguadero,-16.5656,-69.0417,47.39,41,4,3.78,PE,2022-09-16 00:45:34
31,Kanigiri,15.4,79.5167,79.72,70,97,12.68,IN,2022-09-16 00:45:34
32,Puerto Ayora,-0.7393,-90.3518,65.55,92,71,1.01,EC,2022-09-16 00:45:35
33,La Ronge,55.1001,-105.2842,66.45,45,40,6.91,CA,2022-09-16 00:45:35
34,Upernavik,72.7868,-56.1549,38.68,97,100,18.79,GL,2022-09-16 00:45:35
35,Kailua,21.4022,-157.7394,85.44,66,75,10.36,US,2022-09-16 00:45:36
36,Ucluelet,48.9329,-125.5528,60.1,82,100,3.0,CA,2022-09-16 00:45:36
37,Kyra,49.5776,111.9753,48.97,82,100,5.21,RU,2022-09-16 00:45:37
38,Alyangula,-13.8483,136.4192,82.78,72,3,10.85,AU,2022-09-16 00:45:37
39,Vila Franca Do Campo,37.7167,-25.4333,76.19,89,95,12.48,PT,2022-09-16 00:45:38
40,Mahebourg,-20.4081,57.7,70.25,78,40,11.5,MU,2022-09-16 00:44:21
41,Ola,59.5833,151.2833,57.15,48,54,2.93,RU,2022-09-16 00:45:38
42,Piacabucu,-10.4056,-36.4344,71.29,80,0,7.14,BR,2022-09-16 00:45:38
43,Vaini,-21.2,-175.2,80.76,78,75,9.22,TO,2022-09-16 00:45:39
44,Vanimo,-2.6741,141.3028,84.97,67,7,7.58,PG,2022-09-16 00:45:39
45,Itarema,-2.9248,-39.9167,77.67,79,8,14.94,BR,2022-09-16 00:45:40
46,Linares,-35.85,-71.6,53.89,77,100,2.66,CL,2022-09-16 00:45:40
47,Yablochnyy,47.1661,142.0661,64.96,58,50,4.97,RU,2022-09-16 00:45:41
48,Sri Aman,1.2376,111.4621,75.25,100,20,0.0,MY,2022-09-16 00:45:41
49,Tateyama,34.9833,139.8667,82.09,57,53,10.67,JP,2022-09-16 00:45:42
50,Dalvik,65.9702,-18.5286,37.33,59,100,5.84,IS,2022-09-16 00:45:42
51,Rikitea,-23.1203,-134.9692,71.96,75,7,10.6,PF,2022-09-16 00:45:43
52,Vestmannaeyjar,63.4427,-20.2734,49.53,82,51,4.03,IS,2022-09-16 00:42:49
53,Tuktoyaktuk,69.4541,-133.0374,35.6,93,100,9.22,CA,2022-09-16 00:45:43
54,Kodiak,57.79,-152.4072,51.31,87,100,0.0,US,2022-09-16 00:45:44
55,Hilo,19.7297,-155.09,89.28,81,100,9.22,US,2022-09-16 00:41:15
56,Turukhansk,65.8167,87.9833,42.87,92,96,9.42,RU,2022-09-16 00:45:44
57,Hobart,-42.8794,147.3294,55.26,91,75,9.22,AU,2022-09-16 00:45:45
58,Bengkulu,-3.8004,102.2655,77.0,84,96,3.22,ID,2022-09-16 00:45:45
59,Henties Bay,-22.116,14.2845,57.51,94,98,10.87,NA,2022-09-16 00:45:45
60,Iqaluit,63.7506,-68.5145,42.53,93,75,9.22,CA,2022-09-16 00:45:28
61,Gbarnga,6.9956,-9.4722,71.55,100,100,2.28,LR,2022-09-16 00:45:46
62,Shache,38.4167,77.2406,72.46,23,99,3.98,CN,2022-09-16 00:45:47
63,Cabo San Lucas,22.8909,-109.9124,88.61,79,2,7.38,MX,2022-09-16 00:45:28
64,Diu,20.7141,70.9822,78.12,90,51,10.94,IN,2022-09-16 00:45:47
65,Kochi,9.9399,76.2602,76.01,93,100,6.24,IN,2022-09-16 00:45:48
66,Tramandai,-29.9847,-50.1336,59.9,86,2,10.22,BR,2022-09-16 00:45:48
67,Banda Aceh,5.5577,95.3222,80.69,78,100,5.79,ID,2022-09-16 00:45:48
68,Lavrentiya,65.5833,-171.0,47.44,82,100,10.02,RU,2022-09-16 00:45:49
69,Charters Towers,-20.1,146.2667,81.93,45,0,9.15,AU,2022-09-16 00:45:49
70,Qaanaaq,77.484,-69.3632,31.08,94,100,7.11,GL,2022-09-16 00:45:50
71,Bilibino,68.0546,166.4372,38.53,69,100,5.01,RU,2022-09-16 00:45:50
72,Terra Santa,-2.1042,-56.4869,81.39,46,14,1.19,BR,2022-09-16 00:45:50
73,Nanortalik,60.1432,-45.2371,48.72,81,100,8.9,GL,2022-09-16 00:45:51
74,Lasa,46.6166,10.7002,55.36,93,39,4.59,IT,2022-09-16 00:45:51
75,Naryan-Mar,67.6713,53.087,48.38,94,100,8.23,RU,2022-09-16 00:45:52
76,Puerto Colombia,10.9878,-74.9547,82.49,78,100,12.41,CO,2022-09-16 00:42:41
77,Klaksvik,62.2266,-6.589,45.52,69,97,25.37,FO,2022-09-16 00:45:53
78,Hobyo,5.3505,48.5268,76.75,84,96,19.8,SO,2022-09-16 00:45:53
79,Gondanglegi,-7.7479,112.0132,81.7,66,100,14.45,ID,2022-09-16 00:45:54
80,Saint-Joseph,-21.3667,55.6167,66.58,83,35,15.61,RE,2022-09-16 00:45:54
81,Albany,42.6001,-73.9662,59.41,72,2,6.73,US,2022-09-16 00:45:06
82,Hermanus,-34.4187,19.2345,56.8,91,94,4.41,ZA,2022-09-16 00:45:55
83,Castro,-24.7911,-50.0119,52.61,97,100,5.08,BR,2022-09-16 00:43:18
84,Simbach,48.5667,12.75,54.18,92,97,6.62,DE,2022-09-16 00:45:56
85,Cidreira,-30.1811,-50.2056,60.55,84,0,11.52,BR,2022-09-16 00:41:41
86,Auki,-8.7676,160.7034,87.15,52,0,0.67,SB,2022-09-16 00:46:57
87,Leningradskiy,69.3833,178.4167,35.29,97,100,5.19,RU,2022-09-16 00:46:57
88,Port Hedland,-20.3167,118.5667,78.85,19,0,11.5,AU,2022-09-16 00:46:58
89,Am Timan,11.0297,20.2827,72.7,93,99,1.92,TD,2022-09-16 00:46:58
90,Bonthe,7.5264,-12.505,76.46,90,44,6.24,SL,2022-09-16 00:44:14
91,Inzer,54.2167,57.5556,51.76,46,100,6.24,RU,2022-09-16 00:46:58
92,San Cristobal,7.7669,-72.225,77.18,86,31,2.21,VE,2022-09-16 00:44:31
93,Mirnyy,62.5353,113.9611,42.64,84,87,9.22,RU,2022-09-16 00:46:59
94,Dikson,73.5069,80.5464,36.95,71,100,17.47,RU,2022-09-16 00:45:36
95,Nioro,13.35,-15.75,77.0,92,0,5.99,GM,2022-09-16 00:44:19
96,San Jeronimo,-11.9472,-75.2829,50.68,77,85,2.93,PE,2022-09-16 00:46:59
97,Hays,30.0502,-98.0336,86.09,57,94,5.01,US,2022-09-16 00:47:00
98,Saskylakh,71.9167,114.0833,31.41,81,100,9.93,RU,2022-09-16 00:47:00
99,Mushie,-3.0167,16.9,75.7,83,99,1.63,CD,2022-09-16 00:44:26
100,Acajutla,13.5928,-89.8275,80.04,82,97,5.75,SV,2022-09-16 00:47:01
101,Mar Del Plata,-38.0023,-57.5575,55.09,92,0,27.0,AR,2022-09-16 00:44:27
102,Yellowknife,62.456,-114.3525,66.72,48,20,9.22,CA,2022-09-16 00:45:42
103,Cabildo,-38.4842,-61.8954,64.15,30,46,22.41,AR,2022-09-16 00:47:01
104,Northam,51.0333,-4.2167,58.6,75,66,10.6,GB,2022-09-16 00:47:02
105,Amreli,21.6167,71.2333,75.49,95,96,8.46,IN,2022-09-16 00:47:02
106,Rorvik,64.8621,11.2373,53.71,94,100,4.61,NO,2022-09-16 00:47:02
107,Ribeira Grande,38.5167,-28.7,73.74,90,13,15.55,PT,2022-09-16 00:47:03
108,Saint George,37.1041,-113.5841,88.63,35,0,5.75,US,2022-09-16 00:43:18
109,West Bay,19.3667,-81.4167,84.27,81,20,5.75,KY,2022-09-16 00:47:03
110,Halol,22.5,73.4667,78.04,92,93,5.48,IN,2022-09-16 00:47:04
111,Samarai,-10.6167,150.6667,80.94,83,52,14.18,PG,2022-09-16 00:47:04
112,Faya,18.3851,42.4509,66.31,27,9,5.32,SA,2022-09-16 00:47:04
113,Novovasylivka,46.8315,35.7536,65.88,91,100,7.87,UA,2022-09-16 00:47:05
114,Sao Raimundo Nonato,-9.0153,-42.6994,81.43,32,14,3.78,BR,2022-09-16 00:47:05
115,Carnarvon,-24.8667,113.6333,64.58,59,0,19.62,AU,2022-09-16 00:47:06
116,Lethem,3.3803,-59.7968,80.65,71,91,6.38,GY,2022-09-16 00:47:06
117,Grindavik,63.8424,-22.4338,43.27,93,0,1.14,IS,2022-09-16 00:47:07
118,Makakilo City,21.3469,-158.0858,83.98,68,75,12.66,US,2022-09-16 00:47:07
119,Jamestown,42.097,-79.2353,56.84,65,0,5.75,US,2022-09-16 00:47:07
120,Georgetown,5.4112,100.3354,80.53,89,20,2.3,MY,2022-09-16 00:46:30
121,Esna,25.2934,32.554,78.82,34,0,10.85,EG,2022-09-16 00:47:08
122,Kaniama,-7.5667,24.1833,70.59,72,59,0.78,CD,2022-09-16 00:47:08
123,Pacific Grove,36.6177,-121.9166,76.21,77,0,12.66,US,2022-09-16 00:41:42
124,Sovetskiy,61.3614,63.5842,48.24,74,100,6.24,RU,2022-09-16 00:47:09
125,Sao Filipe,14.8961,-24.4956,78.53,86,21,5.93,CV,2022-09-16 00:47:09
126,Asau,46.4333,26.4,63.52,66,82,15.97,RO,2022-09-16 00:47:10
127,Vao,-22.6667,167.4833,68.77,63,11,11.5,NC,2022-09-16 00:47:10
128,Wairoa,-39.0333,177.3667,56.55,63,0,4.0,NZ,2022-09-16 00:47:10
129,Port Elizabeth,-33.918,25.5701,61.32,99,100,5.75,ZA,2022-09-16 00:47:05
130,Kahului,20.8947,-156.47,93.22,58,75,13.8,US,2022-09-16 00:48:11
131,Bonavista,48.6499,-53.1147,58.91,83,0,16.49,CA,2022-09-16 00:48:11
132,Hambantota,6.1241,81.1185,77.34,100,20,2.3,LK,2022-09-16 00:48:12
133,Tasiilaq,65.6145,-37.6368,39.36,87,77,2.91,GL,2022-09-16 00:48:12
134,Arlit,18.7369,7.3853,95.4,17,64,7.45,NE,2022-09-16 00:48:12
135,Cuenca,-2.8833,-78.9833,64.53,55,75,10.36,EC,2022-09-16 00:44:12
136,Pemberton,50.3164,-122.8027,62.29,78,66,5.03,CA,2022-09-16 00:48:13
137,Cape Town,-33.9258,18.4232,61.38,88,100,2.3,ZA,2022-09-16 00:47:10
138,Ostersund,63.1792,14.6357,47.61,100,100,8.05,SE,2022-09-16 00:48:13
139,Yerbogachen,61.2767,108.0108,42.44,81,12,8.32,RU,2022-09-16 00:48:14
140,Kirkuk,35.4681,44.3922,79.5,21,0,5.79,IQ,2022-09-16 00:48:14
141,Kashi,39.4547,75.9797,70.81,32,20,8.95,CN,2022-09-16 00:48:14
142,Ohafia,5.6167,7.8333,70.72,98,100,3.02,NG,2022-09-16 00:48:15
143,Vila,42.0304,-8.1588,56.28,92,0,2.46,PT,2022-09-16 00:48:15
144,Doha,25.2867,51.5333,91.38,62,0,8.05,QA,2022-09-16 00:48:15
145,Hualmay,-11.0964,-77.6139,62.08,81,65,6.93,PE,2022-09-16 00:44:33
146,Banjarmasin,-3.3244,114.591,78.94,78,100,2.24,ID,2022-09-16 00:47:59
147,Thompson,55.7435,-97.8558,64.56,63,20,2.3,CA,2022-09-16 00:45:47
148,Novobirilyussy,56.9514,90.6661,41.85,76,43,3.22,RU,2022-09-16 00:48:16
149,Cabra,37.4725,-4.4421,67.21,68,0,0.98,ES,2022-09-16 00:48:16
150,Anloga,5.7947,0.8973,76.84,86,100,12.41,GH,2022-09-16 00:48:17
151,Lata,40.1629,-8.3327,66.07,95,1,1.86,PT,2022-09-16 00:48:17
152,Bilma,18.6853,12.9164,94.55,16,96,5.55,NE,2022-09-16 00:48:18
153,Whitecourt,54.1502,-115.6855,65.44,63,75,0.0,CA,2022-09-16 00:48:18
154,Kapaa,22.0752,-159.319,84.52,66,20,9.22,US,2022-09-16 00:48:18
155,Chuy,-33.6971,-53.4616,53.31,94,0,6.35,UY,2022-09-16 00:48:19
156,Udachnyy,66.4167,112.4,43.45,75,100,24.87,RU,2022-09-16 00:48:19
157,Bluff,-46.6,168.3333,46.8,55,65,8.1,NZ,2022-09-16 00:45:49
158,Los Llanos De Aridane,28.6585,-17.9182,73.15,90,100,18.41,ES,2022-09-16 00:48:20
159,Alihe,50.5667,123.7167,56.19,60,64,3.11,CN,2022-09-16 00:48:20
160,Ewa Beach,21.3156,-158.0072,85.41,69,75,12.66,US,2022-09-16 00:48:21
161,Sorland,67.667,12.6934,53.46,75,98,12.8,NO,2022-09-16 00:48:21
162,Lodja,-3.4833,23.4333,68.04,98,81,1.01,CD,2022-09-16 00:48:21
163,Nieuw Amsterdam,5.8833,-55.0833,84.22,79,0,5.75,SR,2022-09-16 00:48:22
164,Padang,-0.9492,100.3543,77.05,86,100,1.3,ID,2022-09-16 00:48:22
165,Hailar,49.2,119.7,67.48,38,13,5.88,CN,2022-09-16 00:48:23
166,Esperance,-33.8667,121.9,56.1,68,100,24.27,AU,2022-09-16 00:48:23
167,Tuatapere,-46.1333,167.6833,47.88,61,96,4.97,NZ,2022-09-16 00:48:23
168,Provideniya,64.3833,-173.3,51.91,76,100,13.42,RU,2022-09-16 00:45:36
169,Ust-Nera,64.5667,143.2,36.99,80,100,5.53,RU,2022-09-16 00:44:14
170,Te Anau,-45.4167,167.7167,47.1,67,76,1.9,NZ,2022-09-16 00:48:24
171,Lebu,-37.6167,-73.65,53.98,93,100,15.3,CL,2022-09-16 00:48:24
172,Aklavik,68.2191,-135.0107,39.42,88,100,5.37,CA,2022-09-16 00:48:25
173,Kaitangata,-46.2817,169.8464,48.58,57,92,6.98,NZ,2022-09-16 00:48:25
174,Dryden,49.7833,-92.7503,53.89,94,100,12.66,CA,2022-09-16 00:49:25
175,Sulangan,11.1373,123.7228,82.26,74,100,23.15,PH,2022-09-16 00:49:26
176,Severo-Kurilsk,50.6789,156.125,52.52,77,23,14.79,RU,2022-09-16 00:49:26
177,Kruisfontein,-34.0033,24.7314,55.33,78,67,4.0,ZA,2022-09-16 00:45:41
178,Chase,50.8165,-119.6857,69.33,53,61,2.04,CA,2022-09-16 00:49:27
179,Victoria,22.2855,114.1577,90.25,69,6,1.99,HK,2022-09-16 00:49:27
180,Zelenoborskiy,66.845,32.3622,48.79,97,100,11.45,RU,2022-09-16 00:49:28
181,Alekseyevsk,57.8406,108.3492,44.6,63,7,3.47,RU,2022-09-16 00:49:28
182,Port-Cartier,50.0334,-66.8654,49.75,68,100,26.78,CA,2022-09-16 00:49:29
183,Rawson,-43.3002,-65.1023,65.84,34,100,13.06,AR,2022-09-16 00:49:29
184,Laguna,38.421,-121.4238,81.05,41,0,8.05,US,2022-09-16 00:49:30
185,Batticaloa,7.7102,81.6924,78.75,82,100,3.24,LK,2022-09-16 00:49:30
186,Khudumelapye,-23.8833,24.75,58.69,39,0,6.62,BW,2022-09-16 00:49:30
187,Qom,34.6401,50.8764,74.1,34,0,6.38,IR,2022-09-16 00:49:31
188,Dongfeng,42.6403,125.5118,60.58,98,100,5.23,CN,2022-09-16 00:49:31
189,Camacha,33.0833,-16.3333,69.22,88,20,13.8,PT,2022-09-16 00:49:31
190,Grand Gaube,-20.0064,57.6608,70.38,68,2,5.99,MU,2022-09-16 00:49:32
191,Kasongo-Lunda,-6.4667,16.8167,73.24,77,68,0.6,CD,2022-09-16 00:49:32
192,Korla,41.7597,86.1469,66.0,26,0,5.23,CN,2022-09-16 00:49:32
193,Sault Sainte Marie,46.5168,-84.3333,61.36,93,100,6.91,CA,2022-09-16 00:48:17
194,Perth,-31.9333,115.8333,61.66,84,75,4.61,AU,2022-09-16 00:49:33
195,Ponta Do Sol,32.6667,-17.1,75.83,88,47,5.99,PT,2022-09-16 00:49:33
196,Saint-Philippe,-21.3585,55.7679,67.59,87,62,15.99,RE,2022-09-16 00:45:43
197,Panalingaan,8.7842,117.4231,80.94,84,100,6.49,PH,2022-09-16 00:49:34
198,French Harbor,16.35,-86.4333,84.2,86,75,23.02,HN,2022-09-16 00:49:34
199,Talnakh,69.4865,88.3972,36.21,96,100,18.07,RU,2022-09-16 00:49:35
200,Salta,-24.7859,-65.4117,59.59,37,0,6.91,AR,2022-09-16 00:49:35
201,Torbay,47.6666,-52.7314,58.57,88,0,12.66,CA,2022-09-16 00:49:35
202,Hima,0.2958,30.1804,66.63,91,87,0.92,UG,2022-09-16 00:49:36
203,Sumbe,-11.2061,13.8437,71.1,91,71,10.69,AO,2022-09-16 00:49:36
204,Rio Gallegos,-51.6226,-69.2181,37.45,93,100,6.91,AR,2022-09-16 00:49:36
205,Saldanha,-33.0117,17.9442,57.25,91,7,9.04,ZA,2022-09-16 00:49:37
206,Wageningen,51.9667,5.6667,54.03,94,100,6.91,NL,2022-09-16 00:49:37
207,East London,-33.0153,27.9116,65.16,64,21,7.09,ZA,2022-09-16 00:49:37
208,Kavieng,-2.5744,150.7967,83.8,67,100,14.74,PG,2022-09-16 00:49:38
209,Makushino,55.2103,67.2442,45.55,58,7,8.7,RU,2022-09-16 00:49:38
210,Clifton,40.8584,-74.1638,71.02,56,0,10.36,US,2022-09-16 00:49:39
211,Mutsu,41.2894,141.2169,69.93,80,100,5.06,JP,2022-09-16 00:49:39
212,Ilulissat,69.2167,-51.1,41.02,100,75,1.14,GL,2022-09-16 00:49:39
213,Berdigestyakh,62.0989,126.6992,41.34,72,15,5.3,RU,2022-09-16 00:49:40
214,Ballina,-28.8667,153.5667,71.78,76,49,11.32,AU,2022-09-16 00:49:40
215,Ondjiva,-17.0667,15.7333,67.41,20,0,8.21,AO,2022-09-16 00:49:40
216,Ostrov,57.3439,28.3537,49.73,97,49,9.6,RU,2022-09-16 00:49:41
217,Coquimbo,-29.9533,-71.3436,55.13,94,100,4.61,CL,2022-09-16 00:45:07
218,Bhan,26.5583,67.7214,85.37,59,0,8.23,PK,2022-09-16 00:50:41
219,Codrington,-38.2667,141.9667,50.72,95,100,18.77,AU,2022-09-16 00:50:41
220,Nikolskoye,59.7035,30.7861,53.49,97,93,8.1,RU,2022-09-16 00:50:42
221,Inhambane,-23.865,35.3833,65.79,83,0,3.87,MZ,2022-09-16 00:50:42
222,Kralendijk,12.15,-68.2667,84.18,79,40,11.5,BQ,2022-09-16 00:47:26
223,Vardo,70.3705,31.1107,48.18,93,100,25.32,NO,2022-09-16 00:50:43
224,Nizhnyaya Tavda,57.6731,66.1725,44.74,77,8,6.55,RU,2022-09-16 00:50:43
225,Matagalpa,12.9256,-85.9175,69.03,96,100,2.82,NI,2022-09-16 00:50:43
226,Rameshki,57.3439,36.0453,50.41,89,100,8.81,RU,2022-09-16 00:50:44
227,Moussoro,13.6408,16.4901,81.88,61,100,12.1,TD,2022-09-16 00:50:44
228,Seoul,37.5683,126.9778,78.4,67,75,10.36,KR,2022-09-16 00:46:36
229,Pisco,-13.7,-76.2167,59.05,88,40,5.75,PE,2022-09-16 00:50:45
230,Stilfontein,-26.8449,26.7683,57.52,44,4,4.0,ZA,2022-09-16 00:50:45
231,Aksehir,38.3575,31.4164,65.53,30,0,3.09,TR,2022-09-16 00:50:45
232,Chokurdakh,70.6333,147.9167,37.06,92,100,6.87,RU,2022-09-16 00:50:46
233,Kidal,18.4411,1.4078,92.12,12,71,5.82,ML,2022-09-16 00:50:46
234,Yei,4.095,30.6779,64.58,95,96,2.46,SS,2022-09-16 00:50:46
235,Oranjestad,12.524,-70.027,84.15,74,20,16.11,AW,2022-09-16 00:48:32
236,Taoudenni,22.6783,-3.9836,93.63,15,0,8.88,ML,2022-09-16 00:44:14
237,Aykhal,66.0,111.5,38.3,96,100,26.02,RU,2022-09-16 00:50:47
238,Buala,-8.145,159.5921,85.33,58,38,8.46,SB,2022-09-16 00:50:47
239,Mareeba,-17.0,145.4333,81.45,65,0,5.14,AU,2022-09-16 00:50:48
240,Zyryanka,65.75,150.85,42.78,52,100,12.5,RU,2022-09-16 00:50:48
241,Shoranur,10.7667,76.2833,77.02,99,100,0.36,IN,2022-09-16 00:50:48
242,Velikodvorskiy,55.25,40.6678,44.58,96,6,3.78,RU,2022-09-16 00:50:49
243,Qaqortoq,60.7167,-46.0333,49.21,86,100,1.61,GL,2022-09-16 00:50:49
244,Qiongshan,20.0058,110.3542,82.38,83,0,2.24,CN,2022-09-16 00:50:49
245,Boende,-0.2167,20.8667,68.27,96,22,2.15,CD,2022-09-16 00:50:50
246,Cherskiy,68.75,161.3,38.61,70,95,7.38,RU,2022-09-16 00:50:50
247,Visnes,59.3556,5.2242,55.45,82,20,31.07,NO,2022-09-16 00:50:51
248,Ratnagiri,16.9833,73.3,78.35,89,100,14.92,IN,2022-09-16 00:39:21
249,Cayenne,4.9333,-52.3333,80.64,89,0,3.44,GF,2022-09-16 00:42:56
250,Luderitz,-26.6481,15.1594,62.56,62,6,8.12,NA,2022-09-16 00:50:51
251,Grand-Santi,4.25,-54.3833,76.84,71,21,3.78,GF,2022-09-16 00:44:08
252,Srednekolymsk,67.45,153.6833,40.57,58,100,5.01,RU,2022-09-16 00:50:52
253,Marienburg,54.0359,19.0266,51.89,74,17,14.97,PL,2022-09-16 00:48:19
254,Saint-Augustin,51.226,-58.6502,54.99,71,100,1.88,CA,2022-09-16 00:50:52
255,Margate,51.3813,1.3862,57.87,58,100,5.01,GB,2022-09-16 00:47:11
256,Port Hardy,50.6996,-127.4199,59.18,67,75,3.44,CA,2022-09-16 00:50:53
257,Mantua,45.1667,10.7833,69.1,87,18,1.01,IT,2022-09-16 00:50:53
258,Ternate,0.8,127.4,81.84,75,72,3.89,ID,2022-09-16 00:50:53
259,San Patricio,28.017,-97.5169,86.09,65,7,12.01,US,2022-09-16 00:50:54
260,Nhulunbuy,-12.2333,136.7667,86.61,66,20,16.11,AU,2022-09-16 00:50:54
261,Jijiga,9.35,42.8,62.22,82,47,13.65,ET,2022-09-16 00:50:55
262,Juba,4.8517,31.5825,68.11,94,100,1.79,SS,2022-09-16 00:50:55
263,Guangyuan,32.442,105.823,67.68,97,100,0.96,CN,2022-09-16 00:50:55
264,Badvel,14.75,79.05,78.03,76,100,9.98,IN,2022-09-16 00:50:56
265,Jiuquan,39.7432,98.5174,59.25,33,4,4.9,CN,2022-09-16 00:51:56
266,Monrovia,6.3005,-10.7969,75.45,91,100,7.61,LR,2022-09-16 00:51:56
267,Krasnoye,49.9145,24.6134,56.68,97,100,3.38,UA,2022-09-16 00:51:57
268,Havoysund,70.9963,24.6622,46.63,92,100,27.36,NO,2022-09-16 00:51:57
269,Lamar,33.6668,-95.5836,82.31,44,0,9.22,US,2022-09-16 00:51:57
270,Leshan,29.5623,103.7639,70.95,91,97,0.63,CN,2022-09-16 00:51:58
271,Kudat,6.8837,116.8477,80.53,83,20,8.05,MY,2022-09-16 00:51:58
272,Bubaque,11.2833,-15.8333,80.62,85,12,16.44,GW,2022-09-16 00:51:58
273,Lorengau,-2.0226,147.2712,84.67,63,96,12.5,PG,2022-09-16 00:51:59
274,Uglezavodsk,47.3167,142.6167,60.58,54,79,3.69,RU,2022-09-16 00:51:59
275,Teya,60.3778,92.6267,42.26,90,100,3.0,RU,2022-09-16 00:51:59
276,Bandarbeyla,9.4942,50.8122,78.48,71,26,24.09,SO,2022-09-16 00:52:00
277,Aljezur,37.3191,-8.8033,66.07,95,12,3.58,PT,2022-09-16 00:52:00
278,Katangli,51.7102,143.2326,54.64,49,64,9.93,RU,2022-09-16 00:52:00
279,Cantaura,9.3057,-64.3584,77.22,83,70,4.9,VE,2022-09-16 00:52:01
280,Losinyy,57.1386,61.0666,51.55,48,100,9.22,RU,2022-09-16 00:52:01
281,Baiyin,36.5583,104.2081,63.25,66,100,9.53,CN,2022-09-16 00:52:01
282,Naze,28.3667,129.4833,85.12,76,72,19.62,JP,2022-09-16 00:42:43
283,Shakiso,5.75,38.9167,59.13,86,100,3.89,ET,2022-09-16 00:52:02
284,Merrill,45.1805,-89.6835,71.78,82,40,4.61,US,2022-09-16 00:52:02
285,Norman Wells,65.282,-126.8329,51.84,76,75,0.0,CA,2022-09-16 00:52:03
286,Olga,43.7444,135.2892,59.31,84,100,6.22,RU,2022-09-16 00:52:03
287,Palauig,15.435,119.9045,82.78,74,52,5.55,PH,2022-09-16 00:52:04
288,Broome,42.2506,-75.833,55.78,87,0,6.91,US,2022-09-16 00:44:06
289,Emerald,-23.5333,148.1667,79.05,45,5,12.86,AU,2022-09-16 00:52:04
290,Port Lincoln,-34.7333,135.8667,55.87,63,2,27.13,AU,2022-09-16 00:52:04
291,San Rafael,-34.6177,-68.3301,66.25,16,100,18.1,AR,2022-09-16 00:52:05
292,Guangshui,31.6199,113.9978,79.18,59,0,4.85,CN,2022-09-16 00:52:05
293,Axim,4.8699,-2.2405,74.84,93,100,8.23,GH,2022-09-16 00:52:06
294,Carutapera,-1.195,-46.02,77.92,83,99,6.51,BR,2022-09-16 00:52:06
295,Jackson,42.4165,-122.8345,79.72,40,20,10.36,US,2022-09-16 00:52:06
296,Russell,32.3502,-85.1999,78.4,61,0,0.0,US,2022-09-16 00:42:45
297,Tiksi,71.6872,128.8694,37.54,69,100,18.32,RU,2022-09-16 00:52:07
298,Airai,-8.9266,125.4092,74.93,36,100,2.71,TL,2022-09-16 00:52:07
299,Svetlaya,46.5389,138.3297,59.95,71,100,7.31,RU,2022-09-16 00:52:08
300,Khatanga,71.9667,102.5,32.04,98,100,9.6,RU,2022-09-16 00:52:08
301,Cacador,-26.7753,-51.015,51.87,95,73,5.5,BR,2022-09-16 00:52:08
302,Guerrero Negro,27.9769,-114.0611,71.42,74,0,20.11,MX,2022-09-16 00:52:09
303,Mendota,36.7536,-120.3816,82.67,26,0,11.9,US,2022-09-16 00:52:09
304,Katsuura,35.1333,140.3,78.85,58,63,10.47,JP,2022-09-16 00:52:09
305,Bambous Virieux,-20.3428,57.7575,70.21,78,40,11.5,MU,2022-09-16 00:52:10
306,Nacala,-14.5428,40.6728,68.29,94,14,5.7,MZ,2022-09-16 00:44:15
307,Upata,8.0086,-62.3989,72.01,95,54,3.47,VE,2022-09-16 00:52:10
308,Naranjito,-2.2167,-79.4833,74.88,70,100,5.73,EC,2022-09-16 00:52:11
309,Moose Factory,51.2585,-80.6094,46.4,87,100,0.0,CA,2022-09-16 00:52:11
310,Brejo,-3.6844,-42.7503,74.23,87,96,8.59,BR,2022-09-16 00:52:11
311,Goundam,16.4145,-3.6708,93.54,26,96,3.38,ML,2022-09-16 00:52:12
312,Teknaf,20.8624,92.3058,77.85,88,88,5.14,BD,2022-09-16 00:53:12
313,Olenegorsk,68.15,33.3,46.85,94,100,9.19,RU,2022-09-16 00:53:12
314,New Norfolk,-42.7826,147.0587,54.9,89,100,1.01,AU,2022-09-16 00:53:13
315,Oskemen,49.9565,82.6119,34.93,74,75,0.0,KZ,2022-09-16 00:53:13
316,Souillac,-20.5167,57.5167,70.18,78,40,11.5,MU,2022-09-16 00:53:14
317,Plainview,40.7765,-73.4673,70.68,62,0,6.44,US,2022-09-16 00:53:14
318,Sasykoli,47.5515,46.9968,63.88,76,100,11.25,RU,2022-09-16 00:53:14
319,Santa Rosa,14.3122,121.1114,85.08,78,73,9.6,PH,2022-09-16 00:51:41
320,Karonga,-9.9333,33.9333,71.08,67,4,2.8,MW,2022-09-16 00:53:15
321,Kawalu,-7.3817,108.2082,74.71,89,100,3.2,ID,2022-09-16 00:53:15
322,Ostrovnoy,68.0531,39.5131,46.33,98,99,8.72,RU,2022-09-16 00:53:15
323,Pontypool,51.7011,-3.0444,51.04,85,8,6.31,GB,2022-09-16 00:53:16
324,Laela,-8.5667,32.05,59.38,64,42,2.82,TZ,2022-09-16 00:53:16
325,Meulaboh,4.1363,96.1285,78.01,84,62,4.18,ID,2022-09-16 00:53:17
326,Slavyanka,42.8633,131.3847,61.52,88,100,7.58,RU,2022-09-16 00:53:17
327,Koslan,63.4564,48.8989,49.5,95,100,8.63,RU,2022-09-16 00:53:17
328,Eregli,37.5133,34.0467,60.4,32,0,0.85,TR,2022-09-16 00:53:18
329,Murom,55.5656,42.0417,46.2,94,38,5.57,RU,2022-09-16 00:53:18
330,Haimen,23.1935,116.6142,80.49,61,3,5.57,CN,2022-09-16 00:53:18
331,Ust-Omchug,61.15,149.6333,43.23,55,97,5.23,RU,2022-09-16 00:53:19
332,Nome,64.5011,-165.4064,54.16,75,77,11.97,US,2022-09-16 00:53:19
333,Manokwari,-0.8667,134.0833,83.03,67,46,4.41,ID,2022-09-16 00:53:19
334,Richards Bay,-28.783,32.0377,66.04,78,4,6.73,ZA,2022-09-16 00:53:20
335,Tocache,-8.1842,-76.5125,70.79,96,100,1.39,PE,2022-09-16 00:53:20
336,Monte Carmelo,-18.7247,-47.4986,71.22,60,1,10.2,BR,2022-09-16 00:53:20
337,Porto Velho,-8.7619,-63.9039,80.65,65,0,3.44,BR,2022-09-16 00:51:51
338,Rostovka,55.3842,71.8891,45.05,69,25,6.82,RU,2022-09-16 00:53:21
339,Aron,24.3833,77.4167,72.0,97,100,11.92,IN,2022-09-16 00:53:21
340,Sawakin,19.1059,37.3321,86.22,55,4,3.09,SD,2022-09-16 00:53:22
341,Barabai,-2.5833,115.3833,80.62,75,100,0.43,ID,2022-09-16 00:53:22
342,Takoradi,4.8845,-1.7554,74.84,93,100,7.72,GH,2022-09-16 00:53:22
343,Tual,-5.6667,132.75,81.93,78,18,10.94,ID,2022-09-16 00:53:23
344,Norton,-17.8833,30.7,55.27,67,0,7.2,ZW,2022-09-16 00:53:23
345,Homun,20.7333,-89.2833,75.94,97,93,7.2,MX,2022-09-16 00:53:24
346,Aleksandrov Gay,50.147,48.5704,56.57,81,95,7.11,RU,2022-09-16 00:53:24
347,Praia Da Vitoria,38.7333,-27.0667,75.45,88,40,10.07,PT,2022-09-16 00:53:25
348,Labuhan,-6.8844,112.2051,81.36,70,100,9.62,ID,2022-09-16 00:49:47
349,Namalenga,-10.95,39.1,66.29,93,55,3.13,TZ,2022-09-16 00:53:26
350,Trairi,-3.2778,-39.2689,77.7,79,6,11.21,BR,2022-09-16 00:52:23
351,Smithers,54.7804,-127.1743,61.12,55,75,9.22,CA,2022-09-16 00:53:27
352,Sola,-13.8833,167.55,84.87,74,40,5.75,VU,2022-09-16 00:53:27
353,Agar,23.7,76.0167,72.39,95,100,12.8,IN,2022-09-16 00:53:28
354,Peyima,8.7,-11.0333,70.45,100,100,1.83,SL,2022-09-16 00:53:28
355,Lazaro Cardenas,17.9583,-102.2,80.78,82,69,5.37,MX,2022-09-16 00:53:28
356,Batagay,67.6333,134.6333,36.84,88,98,2.57,RU,2022-09-16 00:53:29
357,Yantal,56.8471,105.2542,44.35,63,7,3.09,RU,2022-09-16 00:53:29
358,Ovalle,-30.5983,-71.2003,60.73,70,100,1.83,CL,2022-09-16 00:49:13
359,Roma,43.2128,-75.4557,53.38,80,33,1.01,US,2022-09-16 00:53:30
360,Bocas Del Toro,9.3333,-82.25,80.94,75,100,2.19,PA,2022-09-16 00:53:30
361,Nenjiang,49.1833,125.2167,66.0,71,77,5.35,CN,2022-09-16 00:54:30
362,Blythe,33.6103,-114.5964,96.03,23,0,13.67,US,2022-09-16 00:53:58
363,Loa Janan,-0.583,117.095,76.21,94,100,2.28,ID,2022-09-16 00:54:31
364,Green Valley,31.8543,-110.9937,93.43,30,0,8.08,US,2022-09-16 00:54:31
365,Hami,42.8,93.45,60.28,31,0,16.24,CN,2022-09-16 00:52:18
366,Kanye,-24.9667,25.3327,59.4,39,0,4.81,BW,2022-09-16 00:54:32
367,Qui Nhon,13.7667,109.2333,81.14,77,99,5.91,VN,2022-09-16 00:54:32
368,Puerto Ayacucho,5.6639,-67.6236,76.42,91,100,4.52,VE,2022-09-16 00:54:32
369,Butaritari,3.0707,172.7902,82.15,71,31,15.93,KI,2022-09-16 00:54:33
370,Ancud,-41.8697,-73.8203,41.23,86,100,2.48,CL,2022-09-16 00:54:33
371,Aswan,24.0934,32.907,81.7,28,0,6.91,EG,2022-09-16 00:54:33
372,Kushima,31.4583,131.2333,81.91,71,100,14.67,JP,2022-09-16 00:54:34
373,Acarau,-2.8856,-40.12,77.79,79,9,16.13,BR,2022-09-16 00:54:34
374,Yulara,-25.2406,130.9889,68.34,21,5,6.91,AU,2022-09-16 00:54:34
375,Gimli,50.6336,-96.9907,62.62,77,54,12.66,CA,2022-09-16 00:54:35
376,Kholtoson,50.2981,103.3097,36.01,100,100,4.43,RU,2022-09-16 00:54:35
377,Yumen,40.2833,97.2,57.18,35,0,14.83,CN,2022-09-16 00:54:35
378,Belmonte,-15.8631,-38.8828,72.79,89,8,6.51,BR,2022-09-16 00:54:36
379,Namibe,-15.1961,12.1522,68.09,87,86,6.58,AO,2022-09-16 00:54:36
380,Mayo,38.8876,-76.5119,70.95,78,0,1.01,US,2022-09-16 00:54:36
381,Volsk,52.0333,47.3833,50.16,92,47,3.29,RU,2022-09-16 00:54:37
382,Necochea,-38.5473,-58.7368,55.53,58,16,16.42,AR,2022-09-16 00:54:37
383,Ukiah,39.1502,-123.2078,78.85,51,0,9.22,US,2022-09-16 00:54:37
384,Hamilton,39.1834,-84.5333,73.09,78,3,2.8,US,2022-09-16 00:54:38
385,Lompoc,34.6391,-120.4579,77.77,73,0,18.41,US,2022-09-16 00:53:22
386,Beltinci,46.6053,16.2406,64.74,96,100,3.65,SI,2022-09-16 00:54:38
387,Kieta,-6.2167,155.6333,83.93,68,95,3.94,PG,2022-09-16 00:54:39
388,Faanui,-16.4833,-151.75,77.5,75,12,23.0,PF,2022-09-16 00:54:39
389,Mesquite,32.7668,-96.5992,84.61,45,0,3.0,US,2022-09-16 00:52:10
390,Ambovombe,-25.1667,46.0833,65.82,73,0,6.6,MG,2022-09-16 00:54:39
391,Fairhope,30.523,-87.9033,81.05,60,0,3.0,US,2022-09-16 00:54:40
392,Roald,62.5833,6.1333,55.76,87,75,17.27,NO,2022-09-16 00:54:40
393,Zhangjiakou,40.81,114.8794,70.43,48,1,2.08,CN,2022-09-16 00:54:40
394,Byron Bay,-28.65,153.6167,71.71,62,66,14.34,AU,2022-09-16 00:54:41
395,Redmond,47.674,-122.1215,71.98,69,83,1.99,US,2022-09-16 00:54:41
396,Amga,60.8953,131.9608,45.0,60,43,7.72,RU,2022-09-16 00:54:41
397,Acapulco,16.8634,-99.8901,79.43,85,100,4.5,MX,2022-09-16 00:54:42
398,Hammond,41.5834,-87.5,78.15,76,0,4.61,US,2022-09-16 00:54:39
399,Rock Sound,24.9,-76.2,84.22,68,12,7.85,BS,2022-09-16 00:54:42
400,Turtas,58.9417,69.1325,49.89,68,100,5.37,RU,2022-09-16 00:54:43
401,Gornopravdinsk,60.05,69.9,43.45,85,93,5.12,RU,2022-09-16 00:54:43
402,Converse,29.518,-98.3161,89.69,53,20,11.5,US,2022-09-16 00:54:43
403,Benin,9.5,2.25,68.79,98,100,2.33,BJ,2022-09-16 00:54:44
404,Kampot,10.6167,104.1833,84.25,78,85,9.44,KH,2022-09-16 00:54:44
405,Round Rock,30.5083,-97.6789,87.31,56,40,9.22,US,2022-09-16 00:52:31
406,Koping,59.514,15.9926,53.51,92,100,7.7,SE,2022-09-16 00:54:44
407,Aguimes,27.9054,-15.4461,74.03,69,75,23.02,ES,2022-09-16 00:54:45
408,Champerico,14.3,-91.9167,82.94,83,100,9.4,GT,2022-09-16 00:54:45
409,Dingle,10.9995,122.6711,76.75,92,100,8.25,PH,2022-09-16 00:55:46
410,Clyde River,70.4692,-68.5914,35.83,100,0,3.44,CA,2022-09-16 00:55:46
411,Eureka,40.8021,-124.1637,66.2,82,18,5.01,US,2022-09-16 00:55:46
412,Billings,45.7833,-108.5007,75.29,44,40,10.36,US,2022-09-16 00:51:03
413,Dubbo,-32.25,148.6167,62.73,72,0,8.05,AU,2022-09-16 00:55:47
414,Nelson Bay,-32.7167,152.15,70.09,68,0,8.99,AU,2022-09-16 00:55:47
415,Granada,37.25,-3.25,61.45,85,0,1.99,ES,2022-09-16 00:55:48
416,Tura,25.5198,90.2201,72.95,98,99,5.37,IN,2022-09-16 00:55:48
417,Shimoda,34.6667,138.95,78.1,67,65,13.69,JP,2022-09-16 00:55:48
418,Mersing,2.4312,103.8405,75.11,94,40,0.0,MY,2022-09-16 00:55:49
419,Talcahuano,-36.7167,-73.1167,55.08,82,100,5.75,CL,2022-09-16 00:55:08
420,Sinnamary,5.3833,-52.95,79.81,87,49,10.13,GF,2022-09-16 00:55:49
421,Quang Ngai,15.1167,108.8,81.37,76,100,3.02,VN,2022-09-16 00:54:57
422,Ixtapa,20.7,-105.2,79.11,95,100,2.01,MX,2022-09-16 00:52:04
423,Gobabis,-22.45,18.9667,61.52,28,6,12.59,NA,2022-09-16 00:55:50
424,Urdoma,61.7533,48.5442,49.68,93,100,7.63,RU,2022-09-16 00:55:50
425,Misratah,32.3754,15.0925,77.76,64,0,11.56,LY,2022-09-16 00:55:50
426,Tutoia,-2.7619,-42.2744,78.48,80,54,13.13,BR,2022-09-16 00:55:51
427,Champoton,19.35,-90.7167,82.2,79,97,9.42,MX,2022-09-16 00:55:51
428,Kirakira,-10.4544,161.9205,83.59,73,28,5.57,SB,2022-09-16 00:55:51
429,Lindsay,36.203,-119.0882,84.78,39,0,8.05,US,2022-09-16 00:55:52
430,Awbari,26.5921,12.7805,80.01,20,0,6.22,LY,2022-09-16 00:55:52
431,Dickinson,29.4608,-95.0513,84.13,79,4,5.01,US,2022-09-16 00:55:52
432,Sudak,44.85,34.9667,69.94,87,43,11.52,UA,2022-09-16 00:55:53
433,Beyneu,45.3167,55.2,60.64,72,15,7.43,KZ,2022-09-16 00:55:53
434,Aparecida Do Taboado,-20.0867,-51.0936,71.96,66,95,3.78,BR,2022-09-16 00:55:53
435,Balikpapan,-1.2675,116.8289,81.59,83,40,9.22,ID,2022-09-16 00:55:54
436,Sitka,57.0531,-135.33,55.98,71,57,5.08,US,2022-09-16 00:55:54
437,Kaeo,-35.1,173.7833,61.32,75,99,6.49,NZ,2022-09-16 00:55:54
438,Okmulgee,35.6234,-95.9605,83.08,36,0,6.91,US,2022-09-16 00:51:30
439,Svetlogorsk,52.6333,29.7333,53.83,93,100,5.88,BY,2022-09-16 00:55:55
440,Thinadhoo,0.5333,72.9333,80.58,70,3,1.48,MV,2022-09-16 00:55:55
441,Portland,45.5234,-122.6762,74.84,55,96,5.01,US,2022-09-16 00:54:26
442,Tymovskoye,50.8456,142.655,56.37,46,12,4.74,RU,2022-09-16 00:55:56
443,Araouane,18.9048,-3.5265,95.14,24,0,8.57,ML,2022-09-16 00:55:56
444,Nkhata Bay,-11.6066,34.2907,68.7,70,56,3.91,MW,2022-09-16 00:55:56
445,Deputatskiy,69.3,139.9,29.95,83,54,2.3,RU,2022-09-16 00:55:57
446,Simbahan,6.3032,120.5836,83.59,69,100,8.21,PH,2022-09-16 00:55:57
447,Mitu,1.1983,-70.1733,73.6,92,95,2.57,CO,2022-09-16 00:55:57
448,Talara,-4.5772,-81.2719,65.16,82,100,11.5,PE,2022-09-16 00:55:58
449,Yar-Sale,66.8333,70.8333,44.91,86,100,8.57,RU,2022-09-16 00:55:58
450,Novyy Urengoy,66.0833,76.6333,44.49,91,100,4.94,RU,2022-09-16 00:55:58
451,Fort-Shevchenko,44.5086,50.263,66.56,63,100,8.14,KZ,2022-09-16 00:55:59
452,San Ramon,37.7799,-121.978,73.81,69,0,7.0,US,2022-09-16 00:55:59
453,Aquiraz,-3.9014,-38.3911,79.18,81,11,10.67,BR,2022-09-16 00:51:10
454,Londoko,49.0333,131.9833,63.82,66,11,3.91,RU,2022-09-16 00:55:59
455,Syracuse,37.0881,15.2792,76.37,63,1,9.98,IT,2022-09-16 00:57:00
456,Sovetskaya Gavan,48.9723,140.2878,58.71,55,10,5.68,RU,2022-09-16 00:57:00
457,Maniitsoq,65.4167,-52.9,43.5,95,100,6.33,GL,2022-09-16 00:57:01
458,Yining,29.0361,114.5636,81.54,55,0,0.43,CN,2022-09-16 00:57:01
459,Khani,41.9563,42.9566,49.57,46,87,5.79,GE,2022-09-16 00:57:01
460,Snasa,64.2457,12.3778,51.21,90,100,1.05,NO,2022-09-16 00:57:02
461,Havre-Saint-Pierre,50.2334,-63.5986,51.8,93,100,4.61,CA,2022-09-16 00:57:02
462,Laiyang,36.9758,120.7136,71.19,95,100,16.37,CN,2022-09-16 00:57:03
463,Harqalah,36.0303,10.509,80.46,78,0,4.61,TN,2022-09-16 00:57:03
464,Saint-Gabriel,46.3001,-73.3824,56.88,64,86,4.92,CA,2022-09-16 00:57:03
465,Lieksa,63.3167,30.0167,50.56,94,100,12.8,FI,2022-09-16 00:57:04
466,Sibolga,1.7427,98.7792,79.48,77,90,1.03,ID,2022-09-16 00:57:04
467,Sayyan,15.1718,44.3244,63.36,29,12,4.32,YE,2022-09-16 00:57:04
468,Palmer,42.1584,-72.3287,56.44,74,0,2.24,US,2022-09-16 00:57:05
469,Dukat,62.55,155.55,38.7,50,94,9.46,RU,2022-09-16 00:57:05
470,Chicama,-7.8447,-79.1469,59.54,79,28,5.57,PE,2022-09-16 00:57:06
471,Karaidel,55.8337,56.9069,56.1,42,100,13.27,RU,2022-09-16 00:57:06
472,South Bend,41.6834,-86.25,70.11,87,100,5.12,US,2022-09-16 00:56:21
473,Port Angeles,48.1181,-123.4307,68.32,73,100,17.27,US,2022-09-16 00:52:12
474,Fort Nelson,58.8053,-122.7002,71.19,30,75,4.61,CA,2022-09-16 00:57:07
475,Bogomila,41.5931,21.4717,59.18,43,100,5.12,MK,2022-09-16 00:57:07
476,Kinkala,-4.3614,14.7644,72.46,81,100,7.47,CG,2022-09-16 00:57:07
477,Markova,48.6758,24.4138,57.96,97,100,4.52,UA,2022-09-16 00:57:08
478,Paranaiba,-19.6772,-51.1908,72.82,67,100,5.57,BR,2022-09-16 00:57:08
479,Natal,-5.795,-35.2094,80.82,78,20,9.22,BR,2022-09-16 00:57:08
480,Arman,59.7,150.1667,57.02,48,100,5.41,RU,2022-09-16 00:57:09
481,Karratha,-20.7377,116.8463,78.53,24,0,19.1,AU,2022-09-16 00:57:09
482,Jardim,-21.4803,-56.1381,65.14,52,100,3.31,BR,2022-09-16 00:57:09
483,Madruga,22.9114,-81.8561,77.68,82,98,2.8,CU,2022-09-16 00:57:10
484,Oranjemund,-28.55,16.4333,56.82,83,100,3.71,NA,2022-09-16 00:57:10
485,Bereda,43.2686,-7.5406,64.42,100,100,4.16,ES,2022-09-16 00:57:11
486,Tarakan,3.3,117.6333,78.3,83,20,5.75,ID,2022-09-16 00:55:05
487,Bone,51.9669,12.1396,55.89,80,17,10.56,DE,2022-09-16 00:57:11
488,Nouadhibou,20.931,-17.0347,75.18,69,3,23.02,MR,2022-09-16 00:55:15
489,Kalmunai,7.4167,81.8167,78.3,83,100,4.09,LK,2022-09-16 00:57:11
490,Urucara,-2.5364,-57.76,81.21,53,73,1.88,BR,2022-09-16 00:57:12
491,Silvan,38.1419,41.0081,65.75,24,0,1.9,TR,2022-09-16 00:57:12
492,Cantagallo,7.376,-73.9196,84.78,93,100,2.08,CO,2022-09-16 00:57:13
493,Kaputa,-8.4689,29.6619,72.77,51,100,4.03,ZM,2022-09-16 00:57:13
494,Goderich,43.7501,-81.7165,59.32,67,44,4.61,CA,2022-09-16 00:57:13
495,Uttaradit,17.6667,100.5,74.14,88,100,2.42,TH,2022-09-16 00:57:14
496,Pineville,31.3224,-92.4343,75.33,70,1,4.9,US,2022-09-16 00:57:14
497,Kattivakkam,13.2167,80.3167,82.49,77,100,8.01,IN,2022-09-16 00:57:14
498,Kisangani,0.5167,25.2,69.06,97,10,2.13,CD,2022-09-16 00:56:35
499,Ati,13.2154,18.3353,79.02,66,100,7.31,TD,2022-09-16 00:57:15
500,Vila Velha,-20.3297,-40.2925,75.15,89,100,5.99,BR,2022-09-16 00:54:32
501,Yelizovo,53.1873,158.3805,55.54,66,75,4.47,RU,2022-09-16 00:58:15
502,Beringovskiy,63.05,179.3167,44.11,92,100,11.83,RU,2022-09-16 00:58:16
503,Quesnel,52.9999,-122.5029,55.9,94,100,3.44,CA,2022-09-16 00:58:16
504,Progreso,21.2833,-89.6667,76.1,87,98,12.77,MX,2022-09-16 00:58:16
505,Guiyang,26.5833,106.7167,66.69,100,75,2.24,CN,2022-09-16 00:58:17
506,Isangel,-19.55,169.2667,78.91,73,40,6.91,VU,2022-09-16 00:53:41
507,High Rock,26.6208,-78.2833,75.22,69,100,11.59,BS,2022-09-16 00:58:17
508,Melilla,35.2937,-2.9383,73.78,68,0,9.22,ES,2022-09-16 00:58:18
509,Mackay,-21.15,149.2,80.69,69,0,11.52,AU,2022-09-16 00:58:18
510,Rantepao,-2.9701,119.8978,77.25,69,54,3.38,ID,2022-09-16 00:58:19
511,Bulungu,-4.55,18.6,71.06,91,100,0.78,CD,2022-09-16 00:58:19
512,Vicksburg,32.3526,-90.8779,73.13,94,0,0.0,US,2022-09-16 00:57:03
513,Turkistan,43.0,68.0,57.07,23,20,2.06,KZ,2022-09-16 00:58:19
514,Portlethen,57.0547,-2.1307,46.78,91,35,10.36,GB,2022-09-16 00:58:20
515,Pandhurna,21.6,78.5167,71.98,97,100,9.26,IN,2022-09-16 00:58:20
516,Ballitoville,-29.539,31.2144,69.94,83,75,11.5,ZA,2022-09-16 00:58:20
517,Bayan,46.0833,127.4,64.29,75,100,9.73,CN,2022-09-16 00:58:21
518,Skibbereen,51.55,-9.2667,52.11,88,35,5.48,IE,2022-09-16 00:58:21
519,Mogadouro,41.3403,-6.7119,60.26,76,0,2.06,PT,2022-09-16 00:58:22
520,Yeniseysk,58.4497,92.1703,40.68,81,13,1.68,RU,2022-09-16 00:58:22
521,Haines Junction,60.7522,-137.5108,55.35,44,69,10.36,CA,2022-09-16 00:58:22
522,Tianpeng,30.9866,103.9393,71.73,90,100,4.9,CN,2022-09-16 00:58:23
523,Dunedin,-45.8742,170.5036,46.8,66,60,10.0,NZ,2022-09-16 00:58:23
524,Potsdam,52.3989,13.0657,55.02,94,13,1.99,DE,2022-09-16 00:53:55
525,Luena,-11.7833,19.9167,59.92,48,15,1.77,AO,2022-09-16 00:58:24
526,Gornyy,55.1153,83.9059,37.98,80,6,4.7,RU,2022-09-16 00:58:24
527,Atar,20.5169,-13.0499,91.0,21,0,11.3,MR,2022-09-16 00:58:24
528,Cuamba,-14.8031,36.5372,66.49,63,12,1.74,MZ,2022-09-16 00:58:25
529,Pucallpa,-8.3791,-74.5539,66.24,94,75,13.8,PE,2022-09-16 00:58:25
530,Zaysan,47.4667,84.8667,46.18,44,100,1.66,KZ,2022-09-16 00:58:25
531,Ust-Tsilma,65.441,52.1498,48.58,96,100,5.77,RU,2022-09-16 00:58:26
532,Dekar,-21.5333,21.9333,62.47,34,0,9.24,BW,2022-09-16 00:58:26
533,Dok Kham Tai,19.1624,99.9934,74.41,96,100,3.38,TH,2022-09-16 00:58:26
534,Vannes,47.8333,-2.5,52.41,86,100,6.22,FR,2022-09-16 00:58:27
535,Diplo,24.4667,69.584,79.79,82,75,17.96,PK,2022-09-16 00:58:27
536,Cervo,43.6702,-7.4101,64.96,87,100,8.46,ES,2022-09-16 00:58:28
537,Sobolevo,54.4299,31.8996,53.02,97,100,8.14,RU,2022-09-16 00:58:28
538,Muros,42.7762,-9.0603,67.08,88,10,7.25,ES,2022-09-16 00:58:29
539,Aviles,43.5547,-5.9248,67.39,83,100,2.3,ES,2022-09-16 00:58:29
540,Yenagoa,4.9247,6.2642,73.78,96,100,3.13,NG,2022-09-16 00:58:30
541,Tam Ky,15.5667,108.4833,80.83,76,97,3.98,VN,2022-09-16 00:55:23
542,Weinan,34.5036,109.5089,74.88,46,3,4.23,CN,2022-09-16 00:58:32
543,Coahuayana,18.7333,-103.6833,79.88,90,100,3.13,MX,2022-09-16 00:58:32
544,Geraldton,-28.7667,114.6,59.41,94,100,4.61,AU,2022-09-16 00:58:33
545,Crixas,-14.5489,-49.9692,86.92,30,5,6.62,BR,2022-09-16 00:59:33
546,Canmore,51.0834,-115.3521,66.31,44,70,4.61,CA,2022-09-16 00:57:22
547,Birao,10.2849,22.7882,72.32,93,100,3.44,CF,2022-09-16 00:59:34
548,Ahuimanu,21.4447,-157.8378,83.19,70,45,5.01,US,2022-09-16 00:59:34
549,Fairbanks,64.8378,-147.7164,58.08,86,100,5.3,US,2022-09-16 00:55:02
550,Olinda,-8.0089,-34.8553,78.53,69,40,6.91,BR,2022-09-16 00:59:35
551,Touros,-5.1989,-35.4608,77.23,79,9,14.32,BR,2022-09-16 00:59:35
552,Qasigiannguit,68.8193,-51.1922,38.82,97,100,4.63,GL,2022-09-16 00:59:35
553,Ust-Koksa,50.2696,85.6108,34.63,84,71,1.66,RU,2022-09-16 00:59:36
554,Verkhnyachka,48.8285,30.0396,59.54,96,100,6.2,UA,2022-09-16 00:59:36
555,Ulaangom,49.9811,92.0667,45.19,57,13,3.8,MN,2022-09-16 00:56:43
556,Tsabong,-26.0217,22.401,66.4,28,5,14.2,BW,2022-09-16 00:59:37
557,Lufilufi,-13.8745,-171.5986,89.38,78,14,19.8,WS,2022-09-16 00:59:37
558,Aksum,14.1245,38.7244,57.69,83,5,0.43,ET,2022-09-16 00:59:37
559,Romitan,39.9343,64.3814,57.15,54,0,4.61,UZ,2022-09-16 00:59:38
560,Krivosheino,57.3431,83.9261,44.46,83,57,3.31,RU,2022-09-16 00:59:38
561,Chinsali,-10.5414,32.0816,59.31,76,79,5.14,ZM,2022-09-16 00:59:38
562,Santa Isabel Do Rio Negro,-0.4139,-65.0192,74.07,95,11,2.33,BR,2022-09-16 00:59:39
563,Matara,5.9485,80.5353,76.24,90,27,6.46,LK,2022-09-16 00:54:50
564,Zhangye,38.9342,100.4517,64.17,25,100,8.55,CN,2022-09-16 00:59:39
565,Chateau-Gontier,47.8333,-0.7,57.36,87,18,6.2,FR,2022-09-16 00:59:40
566,Viedma,-40.8135,-62.9967,71.78,21,100,26.4,AR,2022-09-16 00:59:40
567,Beloha,-25.1667,45.05,67.24,59,0,8.48,MG,2022-09-16 00:59:40
568,Pavlodar,52.3,76.95,33.6,80,0,2.24,KZ,2022-09-16 00:59:41
569,Peleduy,59.6289,112.7406,44.76,69,77,3.76,RU,2022-09-16 00:59:41
570,Dolhasca,47.4333,26.6,68.27,86,100,5.61,RO,2022-09-16 00:59:41
571,Qeshm,26.9581,56.2719,87.67,81,0,0.31,IR,2022-09-16 00:59:42
572,Javanrud,34.7961,46.5172,60.55,38,0,3.85,IR,2022-09-16 00:59:42
573,Balakhta,55.38,91.6,41.97,70,65,3.71,RU,2022-09-16 00:59:42
574,Ilheus,-14.7889,-39.0494,76.82,94,20,6.91,BR,2022-09-16 00:59:43
575,Half Moon Bay,37.4636,-122.4286,73.8,72,75,13.8,US,2022-09-16 00:59:43
576,Waddan,29.1614,16.139,75.27,47,0,10.36,LY,2022-09-16 00:59:44
577,Bonnyville,54.2668,-110.735,67.32,39,0,10.0,CA,2022-09-16 00:55:31
578,Saint-Pierre,-21.3393,55.4781,67.68,88,100,21.85,RE,2022-09-16 00:57:00
579,Manaus,-3.1019,-60.025,82.89,78,0,2.3,BR,2022-09-16 00:59:44
580,Dzhebariki-Khaya,62.2167,135.8,42.35,71,18,6.62,RU,2022-09-16 00:59:45
581,Pevek,69.7008,170.3133,36.81,82,68,5.17,RU,2022-09-16 00:59:45
582,Kismayo,-0.3582,42.5454,75.13,81,15,13.87,SO,2022-09-16 00:59:45
583,Abha,18.2164,42.5053,66.02,42,0,0.0,SA,2022-09-16 00:59:05
584,Villa Del Rosario,7.8339,-72.4742,82.78,65,40,3.44,CO,2022-09-16 00:59:46
585,Shakawe,-18.3667,21.85,60.39,37,0,5.93,BW,2022-09-16 01:00:47
586,Vagur,61.4732,-6.8119,47.8,67,85,21.14,FO,2022-09-16 01:00:47
587,Awjilah,29.1081,21.2869,74.8,48,0,7.38,LY,2022-09-16 01:00:47
588,Maxixe,-23.8597,35.3472,64.56,85,0,3.42,MZ,2022-09-16 01:00:48
589,Bairiki,1.3292,172.9752,82.09,66,95,14.76,KI,2022-09-16 01:00:48
590,Bathsheba,13.2167,-59.5167,82.24,79,38,4.68,BB,2022-09-16 01:00:48
591,Iquitos,-3.7481,-73.2472,72.37,99,100,2.01,PE,2022-09-16 01:00:49
592,Mahon,39.8885,4.2658,72.16,94,0,5.75,ES,2022-09-16 01:00:49
593,Cabaiguan,22.0789,-79.4992,75.33,88,68,9.8,CU,2022-09-16 01:00:49
594,Kupang,-10.1667,123.5833,86.58,62,20,5.75,ID,2022-09-16 00:56:46
595,Stawell,-37.05,142.7667,48.27,97,100,15.43,AU,2022-09-16 01:00:50
596,Impfondo,1.6381,18.0667,70.21,84,34,2.24,CG,2022-09-16 01:00:50
597,Oum Hadjer,13.2954,19.6966,78.12,76,100,7.78,TD,2022-09-16 01:00:50
598,Abu Kamal,34.4506,40.9171,79.81,31,0,6.93,SY,2022-09-16 01:00:51
599,Teberda,43.4456,41.7448,53.11,59,100,9.53,RU,2022-09-16 01:00:51
600,Belle Fourche,44.6714,-103.8522,69.49,52,98,3.49,US,2022-09-16 01:00:31
601,Coihaique,-45.5752,-72.0662,38.01,87,75,5.75,CL,2022-09-16 00:56:23
602,Rabo De Peixe,37.8,-25.5833,75.27,87,75,12.66,PT,2022-09-16 01:00:52
603,Buchanan,5.8808,-10.0467,76.05,90,100,8.14,LR,2022-09-16 01:00:52
604,Port Macquarie,-31.4333,152.9167,74.89,53,6,6.15,AU,2022-09-16 01:00:53
605,Longonjo,-12.9067,15.2533,63.55,67,80,2.64,AO,2022-09-16 01:00:54
606,Zhigansk,66.7697,123.3711,35.89,96,100,16.15,RU,2022-09-16 01:00:54
607,Mount Gambier,-37.8333,140.7667,53.56,92,55,14.09,AU,2022-09-16 01:00:55
608,Oktyabrskoye,43.0645,44.7417,46.54,93,100,4.47,RU,2022-09-16 01:00:55
609,Anadyr,64.75,177.4833,45.1,81,75,2.24,RU,2022-09-16 01:00:55
610,Treinta Y Tres,-33.2333,-54.3833,51.3,94,0,7.9,UY,2022-09-16 01:00:05
611,Sterling,39.0062,-77.4286,70.23,75,0,3.44,US,2022-09-16 01:00:56
612,Szprotawa,51.5656,15.5366,54.25,76,84,10.67,PL,2022-09-16 01:00:56
613,Jiexiu,37.0244,111.9125,70.23,55,0,1.61,CN,2022-09-16 01:00:57
614,Coolum Beach,-26.5333,153.1,74.1,72,78,9.42,AU,2022-09-16 01:00:57
615,Pahrump,36.2083,-115.9839,87.44,19,0,8.01,US,2022-09-16 00:58:52
616,Itaituba,-4.2761,-55.9836,82.71,49,89,1.54,BR,2022-09-16 01:00:58
617,Pochutla,15.7432,-96.4661,78.82,91,100,2.64,MX,2022-09-16 01:00:58
618,Vila Do Maio,15.1333,-23.2167,79.7,83,33,15.08,CV,2022-09-16 01:00:58
619,Shumskiy,54.8318,99.1328,43.65,82,98,2.3,RU,2022-09-16 01:00:59
620,High Prairie,55.4334,-116.4858,67.1,44,96,4.83,CA,2022-09-16 01:00:59
621,Warri,5.5167,5.75,74.23,94,100,2.8,NG,2022-09-16 01:01:00
622,Nuuk,64.1835,-51.7216,48.81,100,75,5.75,GL,2022-09-16 01:01:00
623,Bogorodskoye,56.55,37.8833,44.46,96,52,7.0,RU,2022-09-16 01:01:00
624,Avera,33.194,-82.5271,71.11,57,0,5.93,US,2022-09-16 01:01:01
625,Qingdao,36.0986,120.3719,70.72,92,100,17.69,CN,2022-09-16 01:01:01
626,Brae,60.3964,-1.353,49.15,68,99,28.45,GB,2022-09-16 01:01:02
627,Kenai,60.5544,-151.2583,51.1,94,100,8.21,US,2022-09-16 01:01:02
628,Usinsk,65.9939,57.5281,48.15,89,100,9.6,RU,2022-09-16 01:01:03
629,Shubarkuduk,49.1447,56.4872,54.99,63,6,5.77,KZ,2022-09-16 01:01:03
630,Black River,18.0264,-77.8487,81.18,79,68,3.98,JM,2022-09-16 01:01:03
631,Caraquet,47.7941,-64.9386,50.67,69,100,27.74,CA,2022-09-16 01:01:04
632,Honningsvag,70.9821,25.9704,46.15,87,100,23.02,NO,2022-09-16 01:01:04
633,Dalen,52.6992,6.7556,53.85,84,99,5.99,NL,2022-09-16 01:02:05
634,Esil,51.9556,66.4042,50.05,47,100,13.78,KZ,2022-09-16 01:02:05
635,Kishorganj,24.4333,90.7667,76.5,94,100,6.17,BD,2022-09-16 01:02:05
636,Poum,-20.2333,164.0167,75.34,69,100,15.26,NC,2022-09-16 01:02:06
637,Maragogi,-9.0122,-35.2225,72.7,76,15,7.05,BR,2022-09-16 01:02:06
638,Pindi Bhattian,31.8978,73.273,79.74,63,0,6.49,PK,2022-09-16 01:02:07
639,Vuktyl,63.8567,57.3094,49.42,75,100,7.36,RU,2022-09-16 01:02:07
640,Great Falls,47.5002,-111.3008,73.42,49,100,8.05,US,2022-09-16 00:59:55
641,Piet Retief,-27.0071,30.8132,53.96,65,5,3.53,ZA,2022-09-16 01:02:07
642,Barcelos,41.5388,-8.6151,68.85,93,0,2.19,PT,2022-09-16 01:02:08
643,Nerchinskiy Zavod,51.3088,119.61,48.76,79,100,10.13,RU,2022-09-16 01:02:08
644,Vilhena,-12.7406,-60.1458,66.18,50,85,5.32,BR,2022-09-16 01:02:09
645,Kavadarci,41.4331,22.0119,72.0,40,100,2.89,MK,2022-09-16 01:01:59
646,Omsukchan,62.5333,155.8,40.46,48,87,11.65,RU,2022-09-16 01:02:09
647,Marsabit,2.3284,37.9899,61.54,74,97,22.79,KE,2022-09-16 01:02:09
648,Trapani,37.8333,12.6667,76.24,83,81,12.59,IT,2022-09-16 01:02:10
649,Falmouth,50.1544,-5.0711,56.3,82,91,0.0,GB,2022-09-16 01:00:53
650,Mo I Rana,66.3128,14.1428,49.32,89,100,2.3,NO,2022-09-16 01:02:10
651,Maputo,-25.9653,32.5892,66.22,86,0,6.02,MZ,2022-09-16 01:02:11
652,Jumla,29.2747,82.1838,59.29,97,100,1.28,NP,2022-09-16 01:01:24
653,Krasnoselkup,65.7,82.4667,45.95,91,100,9.73,RU,2022-09-16 01:02:11
654,Saint-Georges,12.0564,-61.7485,81.59,76,21,6.22,GD,2022-09-16 01:02:12
655,Rio Brilhante,-21.8019,-54.5464,64.78,63,100,4.18,BR,2022-09-16 01:02:12
656,Thoen,17.6129,99.2161,76.96,92,100,2.21,TH,2022-09-16 01:02:12
657,Husavik,66.0449,-17.3389,43.68,67,100,5.99,IS,2022-09-16 01:02:13
658,Prince Rupert,54.3161,-130.3201,53.69,100,100,3.44,CA,2022-09-16 01:01:13
659,Port-Gentil,-0.7193,8.7815,76.24,83,100,16.22,GA,2022-09-16 01:02:13
660,Torrelavega,43.3494,-4.0479,68.81,90,90,3.0,ES,2022-09-16 01:02:13
661,Acari,-15.4311,-74.6158,66.52,63,6,2.84,PE,2022-09-16 01:02:14
662,Matagami,49.7502,-77.6328,41.41,77,100,3.44,CA,2022-09-16 01:02:14
663,Gold Coast,-28.0,153.4333,69.01,87,75,18.41,AU,2022-09-16 00:59:11
664,Taiyuan,37.8694,112.5603,62.46,72,0,2.24,CN,2022-09-16 01:02:15
665,Plouzane,48.3833,-4.6167,55.45,85,0,11.5,FR,2022-09-16 01:02:15
666,Ponyri,52.3186,36.3039,52.52,95,100,9.33,RU,2022-09-16 01:02:16
667,Uglich,57.5275,38.3317,44.89,96,100,6.15,RU,2022-09-16 01:02:16
668,Moerai,-22.4333,-151.3333,71.78,64,1,19.62,PF,2022-09-16 01:02:17
669,Hasaki,35.7333,140.8333,81.28,64,100,6.8,JP,2022-09-16 01:02:17
670,Rio Grande,-32.035,-52.0986,57.94,89,0,9.08,BR,2022-09-16 01:02:17
671,Khon Buri,14.5254,102.2459,81.54,86,100,4.23,TH,2022-09-16 01:02:18
672,Trabzon,40.9167,39.8333,64.49,73,0,4.61,TR,2022-09-16 01:02:18
673,Malinovskiy,61.1953,62.8397,47.86,77,100,5.66,RU,2022-09-16 01:02:19
674,Berlevag,70.8578,29.0864,46.35,93,100,23.02,NO,2022-09-16 01:02:19
675,Noyabrsk,63.1994,75.4507,46.74,81,100,9.82,RU,2022-09-16 01:02:19
676,Tautira,-17.7333,-149.15,75.81,71,78,21.77,PF,2022-09-16 01:02:20
677,Okhotsk,59.3833,143.3,50.79,51,1,16.73,RU,2022-09-16 01:02:20
678,New London,41.4834,-72.0662,61.12,72,0,5.75,US,2022-09-16 01:02:20
679,Okrika,4.7416,7.0849,74.75,92,100,4.05,NG,2022-09-16 01:02:21
680,Luganville,-15.5333,167.1667,81.95,74,54,11.48,VU,2022-09-16 01:03:21
681,Amapa,1.0,-52.0,73.54,95,100,2.57,BR,2022-09-16 01:03:22
682,Sangar,63.9242,127.4739,39.67,72,55,7.72,RU,2022-09-16 01:03:22
683,Regeneracao,-6.2378,-42.6883,83.68,32,84,0.2,BR,2022-09-16 01:03:22
684,Comodoro Rivadavia,-45.8667,-67.5,55.63,49,16,35.3,AR,2022-09-16 01:01:17
685,Novyy Urgal,51.0736,132.5642,54.16,60,92,4.38,RU,2022-09-16 01:03:23
686,Ambilobe,-13.2,49.05,65.19,67,2,5.26,MG,2022-09-16 01:03:23
687,Santander Jimenez,24.2167,-98.4667,79.52,76,45,8.03,MX,2022-09-16 01:03:24
688,Milkovo,54.7167,158.6167,49.69,52,99,4.29,RU,2022-09-16 01:03:24
689,Lillebonne,49.5203,0.5362,58.48,63,100,4.74,FR,2022-09-16 01:03:24
690,Somanda,-3.3667,33.95,66.16,63,5,13.4,TZ,2022-09-16 01:03:25
691,Zacualpan,21.25,-105.1667,83.03,86,72,0.67,MX,2022-09-16 01:03:25
692,Moron,-34.6534,-58.6198,62.96,70,0,9.35,AR,2022-09-16 01:03:25
693,Duluth,46.7833,-92.1066,62.35,91,40,16.11,US,2022-09-16 01:01:54
694,Venado Tuerto,-33.7456,-61.9688,58.77,33,5,14.94,AR,2022-09-16 01:03:26
695,Pendleton,45.6721,-118.7886,77.74,39,48,3.0,US,2022-09-16 01:02:06
696,Vostok,46.4856,135.8833,65.16,53,100,1.16,RU,2022-09-16 01:03:27
697,Ndjole,-0.1783,10.7649,74.08,93,100,4.83,GA,2022-09-16 01:03:27
698,Batemans Bay,-35.7167,150.1833,69.13,34,0,9.44,AU,2022-09-16 01:02:44
699,Port Augusta,-32.5,137.7667,63.23,51,100,21.94,AU,2022-09-16 01:01:13
700,Hofn,64.2539,-15.2082,45.59,64,100,6.15,IS,2022-09-16 01:03:13
701,Shitanjing,39.2342,106.3439,68.22,53,100,5.73,CN,2022-09-16 01:03:28
702,Kungurtug,50.5994,97.5228,39.47,99,100,3.22,RU,2022-09-16 01:03:28
703,Benghazi,32.1167,20.0667,76.55,53,0,6.02,LY,2022-09-16 01:03:29
704,Moses Lake,47.1301,-119.2781,74.88,38,0,3.44,US,2022-09-16 01:03:29
705,Indramayu,-6.3264,108.32,81.79,67,96,7.29,ID,2022-09-16 01:03:29
706,Verkh-Neyvinskiy,57.2701,60.1376,49.87,49,100,8.14,RU,2022-09-16 01:03:30
707,Ugoofaaru,5.6667,73.0,80.69,71,12,5.59,MV,2022-09-16 01:03:30
708,Miracema Do Tocantins,-9.5618,-48.3967,87.44,21,25,3.27,BR,2022-09-16 01:03:30
709,Nongpoh,25.9,91.8833,72.97,91,90,1.66,IN,2022-09-16 01:03:31
710,Yatou,37.15,122.3833,72.75,94,100,31.43,CN,2022-09-16 01:03:31
711,Hefei,31.8639,117.2808,77.11,65,0,9.95,CN,2022-09-16 01:03:31
712,Ojinaga,29.5667,-104.4167,90.55,35,0,0.0,MX,2022-09-16 01:03:32
713,College,64.8569,-147.8028,57.2,86,100,1.01,US,2022-09-16 01:03:32
714,Ulladulla,-35.35,150.4667,65.77,42,3,10.58,AU,2022-09-16 01:03:32
715,Porto Novo,6.4965,2.6036,75.79,87,80,6.51,BJ,2022-09-16 01:03:33
716,Road Town,18.4167,-64.6167,84.24,84,75,18.41,VG,2022-09-16 01:03:33
717,Meadow Lake,34.8014,-106.5436,79.79,44,11,4.68,US,2022-09-16 01:03:33
718,Port Moresby,-9.4431,147.1797,84.65,69,23,5.64,PG,2022-09-16 01:02:12
719,Port Blair,11.6667,92.75,82.13,78,95,12.17,IN,2022-09-16 01:03:34
720,Carman,49.4992,-98.0016,59.9,67,100,8.77,CA,2022-09-16 01:03:34
721,Chernyshevskiy,63.0128,112.4714,40.93,87,45,10.25,RU,2022-09-16 01:03:35
722,Santa Marta,11.2408,-74.199,82.89,79,100,8.01,CO,2022-09-16 01:01:55
723,Mmabatho,-25.85,25.6333,59.52,43,0,5.39,ZA,2022-09-16 01:03:35
724,Fortuna,40.5982,-124.1573,65.93,77,11,4.0,US,2022-09-16 01:03:35
725,Timra,62.487,17.3257,50.68,93,75,12.66,SE,2022-09-16 01:03:36
